[{"id":"lt-12600345","ltShpId":"12600345","name":"감만정보통신","roadAddress":"부산 남구 우암로 150 복권판매점","sido":"부산","sigungu":"남구","lat":35.123599,"lng":129.08018,"phone":"051-645-9573","firstPrizeCount":1,"firstPrizeDraws":[1228],"dealType":"auto"},{"id":"lt-12640394","ltShpId":"12640394","name":"거액의꿈","roadAddress":"부산 남구 우암로154번길 54","sido":"부산","sigungu":"남구","lat":35.125574,"lng":129.08171,"firstPrizeCount":1,"firstPrizeDraws":[1229],"dealType":"semi"},{"id":"lt-12840220","ltShpId":"12840220","name":"나라복권","roadAddress":"인천 남동구 인주대로676번길 22 상가동 101호","sido":"인천","sigungu":"남동구","lat":37.448388,"lng":126.71194,"firstPrizeCount":1,"firstPrizeDraws":[1228],"dealType":"auto"},{"id":"lt-11142045","ltShpId":"11142045","name":"대박복권","roadAddress":"서울 동작구 동작대로27가길 36 1층","sido":"서울","sigungu":"동작구","lat":37.486017,"lng":126.980955,"firstPrizeCount":1,"firstPrizeDraws":[1229],"dealType":"manual"},{"id":"lt-11141044","ltShpId":"11141044","name":"대치럭키 로또","roadAddress":"서울 강남구 선릉로76길 38 1층 3호","sido":"서울","sigungu":"강남구","lat":37.50213,"lng":127.0536,"firstPrizeCount":1,"firstPrizeDraws":[1229],"dealType":"manual"},{"id":"lt-14140618","ltShpId":"14140618","name":"돈벼락","roadAddress":"경기 군포시 금당로 112 101호(당동)","sido":"경기","sigungu":"군포시","lat":37.355865,"lng":126.94331,"firstPrizeCount":1,"firstPrizeDraws":[1228],"dealType":"auto"},{"id":"lt-14740289","ltShpId":"14740289","name":"동네복권","roadAddress":"경북 울진군 울진중앙로 27 1층","sido":"경북","sigungu":"울진군","lat":36.984846,"lng":129.39697,"firstPrizeCount":1,"firstPrizeDraws":[1228],"dealType":"auto"},{"id":"lt-14890018","ltShpId":"14890018","name":"로또냉동","roadAddress":"경남 김해시 장유로 331-1 좌측 복권판매점","sido":"경남","sigungu":"김해시","lat":35.197175,"lng":128.81663,"firstPrizeCount":1,"firstPrizeDraws":[1229],"dealType":"auto"},{"id":"lt-14840666","ltShpId":"14840666","name":"로또명당","roadAddress":"경남 하동군 진교중앙길 22","sido":"경남","sigungu":"하동군","lat":35.028888,"lng":127.90241,"firstPrizeCount":1,"firstPrizeDraws":[1228],"dealType":"auto"},{"id":"lt-13010044","ltShpId":"13010044","name":"로또복권방","roadAddress":"대전 서구 갈마중로 28","sido":"대전","sigungu":"서구","lat":36.347532,"lng":127.37245,"phone":"042-531-5634","firstPrizeCount":1,"firstPrizeDraws":[1227],"dealType":"auto"},{"id":"lt-11100959","ltShpId":"11100959","name":"로또킹","roadAddress":"서울 영등포구 영중로 2 1층(영등포동3가)","sido":"서울","sigungu":"영등포구","lat":37.516741,"lng":126.90673,"phone":"02-2633-2200","firstPrizeCount":1,"firstPrizeDraws":[1229],"dealType":"auto"},{"id":"lt-13020005","ltShpId":"13020005","name":"로또편의점","roadAddress":"대전 유성구 진잠로 146 교촌빌딩","sido":"대전","sigungu":"유성구","lat":36.303307,"lng":127.31761,"firstPrizeCount":1,"firstPrizeDraws":[1227],"dealType":"auto"},{"id":"lt-14110255","ltShpId":"14110255","name":"마이더스로또복권방","roadAddress":"경기 안양시 동안구 안양판교로 12-2","sido":"경기","sigungu":"안양시 동안구","lat":37.400843,"lng":126.97768,"phone":"031-421-1311","firstPrizeCount":1,"firstPrizeDraws":[1227],"dealType":"manual"},{"id":"lt-14120143","ltShpId":"14120143","name":"바른","roadAddress":"경기 하남시 신장로 68","sido":"경기","sigungu":"하남시","lat":37.535698,"lng":127.21004,"firstPrizeCount":1,"firstPrizeDraws":[1228],"dealType":"auto"},{"id":"lt-14690004","ltShpId":"14690004","name":"복권나라","roadAddress":"전남 여수시 중앙로 62 1층","sido":"전남","sigungu":"여수시","lat":34.739931,"lng":127.73434,"phone":"061-666-9303","firstPrizeCount":1,"firstPrizeDraws":[1228],"dealType":"auto"},{"id":"lt-12700319","ltShpId":"12700319","name":"복권명당","roadAddress":"대구 수성구 들안로 243","sido":"대구","sigungu":"수성구","lat":35.851742,"lng":128.61664,"phone":"053-766-2827","firstPrizeCount":1,"firstPrizeDraws":[1227],"dealType":"auto"},{"id":"lt-12700079","ltShpId":"12700079","name":"복권명당(서부점)","roadAddress":"대구 달서구 월배로 452","sido":"대구","sigungu":"달서구","lat":35.833618,"lng":128.55478,"phone":"053-628-6450","firstPrizeCount":1,"firstPrizeDraws":[1227],"dealType":"auto"},{"id":"lt-14110478","ltShpId":"14110478","name":"복돼지복권방","roadAddress":"경기 화성시 3.1만세로 43","sido":"경기","sigungu":"화성시","lat":37.082827,"lng":126.81873,"phone":"031-351-0399","firstPrizeCount":1,"firstPrizeDraws":[1228],"dealType":"auto"},{"id":"lt-14840592","ltShpId":"14840592","name":"복이 데굴데굴","roadAddress":"경남 통영시 안정로 779 102호","sido":"경남","sigungu":"통영시","lat":34.945473,"lng":128.41327,"firstPrizeCount":1,"firstPrizeDraws":[1227],"dealType":"semi"},{"id":"lt-12890056","ltShpId":"12890056","name":"왕대박복권편의점","roadAddress":"인천 부평구 동수천로 108 1층","sido":"인천","sigungu":"부평구","lat":37.495124,"lng":126.73707,"phone":"032-505-0943","firstPrizeCount":1,"firstPrizeDraws":[1227],"dealType":"manual"},{"id":"lt-14142354","ltShpId":"14142354","name":"이마트24 백석동문점","roadAddress":"경기 고양시 일산동구 호수로 358-26 1층 편의점","sido":"경기","sigungu":"고양시 일산동구","lat":37.639315,"lng":126.7869,"firstPrizeCount":1,"firstPrizeDraws":[1228],"dealType":"auto"},{"id":"lt-14630004","ltShpId":"14630004","name":"이마트24 순천산단점","roadAddress":"전남 순천시 산단1길 6","sido":"전남","sigungu":"순천시","lat":34.987878,"lng":127.50851,"phone":"061-751-6498","firstPrizeCount":1,"firstPrizeDraws":[1229],"dealType":"auto"},{"id":"lt-12800202","ltShpId":"12800202","name":"인현동지하가판","roadAddress":"인천 중구 참외전로 132-2 동인천역 78번 출구 지하1층 가판대","sido":"인천","sigungu":"중구","lat":37.474608,"lng":126.63176,"phone":"032-772-0669","firstPrizeCount":1,"firstPrizeDraws":[1229],"dealType":"auto"},{"id":"lt-12640253","ltShpId":"12640253","name":"일등복권방","roadAddress":"부산 남구 고동골로 3","sido":"부산","sigungu":"남구","lat":35.137368,"lng":129.07094,"firstPrizeCount":1,"firstPrizeDraws":[1228],"dealType":"auto"},{"id":"lt-14320011","ltShpId":"14320011","name":"중앙복권방","roadAddress":"충북 청주시 청원구 율량로189번길 25","sido":"충북","sigungu":"청주시 청원구","lat":36.665708,"lng":127.50038,"firstPrizeCount":1,"firstPrizeDraws":[1228],"dealType":"manual"},{"id":"lt-11100323","ltShpId":"11100323","name":"진흥수퍼","roadAddress":"서울 강남구 논현로150길 31","sido":"서울","sigungu":"강남구","lat":37.519838,"lng":127.03092,"firstPrizeCount":1,"firstPrizeDraws":[1227],"dealType":"auto"},{"id":"lt-14100189","ltShpId":"14100189","name":"해피마트","roadAddress":"경기 의왕시 부곡중앙로 3-2 의왕역로터리앞","sido":"경기","sigungu":"의왕시","lat":37.321184,"lng":126.94929,"phone":"031-461-8493","firstPrizeCount":1,"firstPrizeDraws":[1227],"dealType":"auto"},{"id":"lt-11190006","ltShpId":"11190006","name":"행운의집","roadAddress":"서울 강동구 구천면로 222","sido":"서울","sigungu":"강동구","lat":37.540627,"lng":127.12939,"phone":"02-484-1124","firstPrizeCount":1,"firstPrizeDraws":[1227],"dealType":"auto"},{"id":"lt-12840371","ltShpId":"12840371","name":"홍이복권방","roadAddress":"인천 서구 중봉대로 759 D동 101호(경서동)","sido":"인천","sigungu":"서구","lat":37.547596,"lng":126.64983,"firstPrizeCount":1,"firstPrizeDraws":[1227],"dealType":"auto"},{"id":"lt-14840298","ltShpId":"14840298","name":"황금노다지","roadAddress":"경남 김해시 경원로 13 1층 삼거리쪽","sido":"경남","sigungu":"김해시","lat":35.23867,"lng":128.862237,"firstPrizeCount":1,"firstPrizeDraws":[1229],"dealType":"auto"}]