[{"id":"lt-11100773","ltShpId":"11100773","name":"스파","roadAddress":"서울 노원구 상계동  666 주공 10단지 종합상가 111","sido":"서울","sigungu":"노원구","lat":37.661671,"lng":127.05789,"phone":"02-951-6465","firstPrizeCount":44,"dealType":"semi","recentDraws":[1121,1146,1176,1193,1220]},{"id":"lt-12600054","ltShpId":"12600054","name":"부일카서비스","roadAddress":"부산 동구 범일동  830-195","sido":"부산","sigungu":"동구","lat":35.140055,"lng":129.06305,"phone":"051-637-7747","firstPrizeCount":38,"dealType":"auto","recentDraws":[1144,1147,1188,1205,1210]},{"id":"lt-14410015","ltShpId":"14410015","name":"로또명당인주점","roadAddress":"충남 아산시 인주면 신성리 신성리 188-8","sido":"충남","sigungu":"아산시","lat":36.877624,"lng":126.89693,"phone":"041-533-0449","firstPrizeCount":33,"dealType":"auto","recentDraws":[1156,1165,1180,1204,1206]},{"id":"lt-12710129","ltShpId":"12710129","name":"쿨복권방","roadAddress":"대구 달서구 본리동  1-10번지","sido":"대구","sigungu":"달서구","lat":35.842204,"lng":128.53619,"phone":"053-522-6808","firstPrizeCount":28,"dealType":"auto","recentDraws":[986,1068,1093,1188,1223]},{"id":"lt-14110105","ltShpId":"14110105","name":"로또휴게실","roadAddress":"경기 용인시 기흥구 하갈동 171-1","sido":"경기","sigungu":"용인시","lat":37.256442,"lng":127.10428,"phone":"031-286-3442","firstPrizeCount":25,"dealType":"auto","recentDraws":[1085,1106,1128,1183,1209]},{"id":"lt-12600128","ltShpId":"12600128","name":"뉴빅마트","roadAddress":"부산 기장군 정관면  방곡리 256-11","sido":"부산","sigungu":"기장군","lat":35.321095,"lng":129.17927,"firstPrizeCount":21,"dealType":"auto","recentDraws":[1083,1088,1181,1185,1196]},{"id":"lt-11100959","ltShpId":"11100959","name":"버스판매소","roadAddress":"서울 영등포구 영등포동4가  441-10","sido":"서울","sigungu":"영등포구","lat":37.516741,"lng":126.90673,"phone":"02-2633-2200","firstPrizeCount":21,"dealType":"auto","recentDraws":[1106,1158,1192,1206,1222]},{"id":"lt-12700270","ltShpId":"12700270","name":"세진전자통신","roadAddress":"대구 서구 평리동  1094-4","sido":"대구","sigungu":"서구","lat":35.871898,"lng":128.55519,"phone":"053-566-4466","firstPrizeCount":21,"dealType":"auto","recentDraws":[987,1070,1093,1112,1173]},{"id":"lt-14810122","ltShpId":"14810122","name":"목화휴게소","roadAddress":"경남 사천시 용현면  주문리   5-3","sido":"경남","sigungu":"사천시","lat":35.001748,"lng":128.05415,"phone":"055-835-2780","firstPrizeCount":20,"dealType":"auto","recentDraws":[1021,1037,1128,1189,1222]},{"id":"lt-11101248","ltShpId":"11101248","name":"잠실매점","roadAddress":"서울 송파구 신천동  7-18호","sido":"서울","sigungu":"송파구","lat":37.514446,"lng":127.100711,"phone":"02-419-0763","firstPrizeCount":20,"dealType":"auto","recentDraws":[1039,1054,1087,1106,1181]},{"id":"lt-12900033","ltShpId":"12900033","name":"오천억복권방","roadAddress":"광주 서구 화정동  782-14","sido":"광주","sigungu":"서구","lat":35.152922,"lng":126.88072,"phone":"062-363-1471","firstPrizeCount":18,"dealType":"auto","recentDraws":[1169,1183,1211,1215,1222]},{"id":"lt-14100195","ltShpId":"14100195","name":"복권백화점","roadAddress":"경기 파주시 금촌2동  329-135","sido":"경기","sigungu":"파주시","lat":37.763647,"lng":126.76994,"phone":"031-943-7477","firstPrizeCount":16,"dealType":"auto","recentDraws":[1080,1118,1193,1213,1217]},{"id":"lt-12900150","ltShpId":"12900150","name":"알리바이","roadAddress":"광주 광산구 신가동  986-4번지 1층","sido":"광주","sigungu":"광산구","lat":35.185381,"lng":126.83665,"phone":"062-961-7142","firstPrizeCount":16,"dealType":"manual","recentDraws":[1150,1164,1194,1209,1214]},{"id":"lt-12600086","ltShpId":"12600086","name":"돈벼락맞는곳","roadAddress":"부산 동구 범일동  833-5","sido":"부산","sigungu":"동구","lat":35.139161,"lng":129.05993,"phone":"051-636-3669","firstPrizeCount":13,"dealType":"auto","recentDraws":[1049,1057,1102,1136,1190]},{"id":"lt-11100558","ltShpId":"11100558","name":"묵동식품","roadAddress":"서울 중랑구 묵동  238-11","sido":"서울","sigungu":"중랑구","lat":37.61247,"lng":127.07706,"phone":"02-979-3157","firstPrizeCount":13,"dealType":"auto","recentDraws":[1043,1095,1163,1212,1213]},{"id":"lt-14390030","ltShpId":"14390030","name":"썬마트","roadAddress":"충북 청주시 흥덕구 복대동 2719","sido":"충북","sigungu":"청주시","lat":36.632588,"lng":127.42812,"phone":"043-232-3015","firstPrizeCount":13,"dealType":"auto","recentDraws":[947,999,1055,1140,1204]},{"id":"lt-11190121","ltShpId":"11190121","name":"제이복권방","roadAddress":"서울 종로구 종로5가  58번지 평창빌딩 1층 103호","sido":"서울","sigungu":"종로구","lat":37.571252,"lng":127.00283,"phone":"02-764-3232","firstPrizeCount":13,"dealType":"auto","recentDraws":[1020,1057,1094,1143,1149]},{"id":"lt-12890025","ltShpId":"12890025","name":"대박천하마트","roadAddress":"인천 부평구 갈산동  367번지","sido":"인천","sigungu":"부평구","lat":37.511576,"lng":126.7263,"phone":"032-507-2505","firstPrizeCount":12,"dealType":"auto","recentDraws":[1057,1115,1122,1125,1170]},{"id":"lt-14600083","ltShpId":"14600083","name":"알리바이(나주점)","roadAddress":"전남 나주시 금성동  18-1","sido":"전남","sigungu":"나주시","lat":35.031329,"lng":126.71715,"phone":"061-334-7179","firstPrizeCount":12,"dealType":"manual","recentDraws":[900,950,1039,1138,1139]},{"id":"lt-11100988","ltShpId":"11100988","name":"오케이상사","roadAddress":"서울 서초구 반포동  19-3 센트럴시티내 100호매점","sido":"서울","sigungu":"서초구","lat":37.504354,"lng":127.003597,"phone":"02-6282-2312","firstPrizeCount":12,"dealType":"auto","recentDraws":[1020,1050,1067,1110,1136]},{"id":"lt-13100057","ltShpId":"13100057","name":"한꿈복권방","roadAddress":"울산 중구 남외동  486-5","sido":"울산","sigungu":"중구","lat":35.568772,"lng":129.34587,"firstPrizeCount":12,"dealType":"auto","recentDraws":[1094,1143,1155,1160,1223]},{"id":"lt-14400024","ltShpId":"14400024","name":"대박마트복권방","roadAddress":"충남 아산시 음봉면  산동리   431-10 태화상가1층103호","sido":"충남","sigungu":"아산시","lat":36.826485,"lng":127.09925,"phone":"041-549-0787","firstPrizeCount":11,"dealType":"auto","recentDraws":[1105,1118,1150,1178,1204]},{"id":"lt-12890069","ltShpId":"12890069","name":"라이프마트","roadAddress":"인천 중구 항동7가  58-985호","sido":"인천","sigungu":"중구","lat":37.452608,"lng":126.60407,"phone":"032-888-4055","firstPrizeCount":11,"dealType":"auto","recentDraws":[864,868,876,1039,1050]},{"id":"lt-12700323","ltShpId":"12700323","name":"메트로센터점","roadAddress":"대구 중구 덕산동  88번지 메트로센터C412호","sido":"대구","sigungu":"중구","lat":35.865008,"lng":128.59372,"phone":"053-254-3485","firstPrizeCount":11,"dealType":"auto","recentDraws":[1128,1191,1193,1213,1223]},{"id":"lt-11100244","ltShpId":"11100244","name":"복권나라","roadAddress":"서울 관악구 봉천본동  926-25","sido":"서울","sigungu":"관악구","lat":37.482804,"lng":126.9435,"phone":"02-889-1355","firstPrizeCount":11,"dealType":"auto","recentDraws":[971,997,1070,1163,1167]},{"id":"lt-12700079","ltShpId":"12700079","name":"복권명당(서부점)","roadAddress":"대구 달서구 송현동  195-2","sido":"대구","sigungu":"달서구","lat":35.833618,"lng":128.55478,"phone":"053-628-6450","firstPrizeCount":11,"dealType":"auto","recentDraws":[893,941,952,1090,1218]},{"id":"lt-14800043","ltShpId":"14800043","name":"북마산복권전문점","roadAddress":"경남 마산시 상남동  39-4","sido":"경남","sigungu":"마산시","lat":35.215965,"lng":128.57054,"phone":"055-244-3626","firstPrizeCount":11,"dealType":"manual","recentDraws":[832,848,874,1105,1146]},{"id":"lt-13190001","ltShpId":"13190001","name":"영화유통(1등복권방)","roadAddress":"울산 남구 달동  758삼성아파트상가204-101","sido":"울산","sigungu":"남구","lat":35.534272,"lng":129.32176,"phone":"052-269-9851","firstPrizeCount":11,"dealType":"auto","recentDraws":[1060,1065,1102,1144,1189]},{"id":"lt-11100434","ltShpId":"11100434","name":"월드24시","roadAddress":"서울 은평구 갈현1동  398-1","sido":"서울","sigungu":"은평구","lat":37.619245,"lng":126.91978,"phone":"02-385-5664","firstPrizeCount":11,"dealType":"auto","recentDraws":[752,881,1098,1213,1222]},{"id":"lt-14800027","ltShpId":"14800027","name":"천하명당 복권방","roadAddress":"경남 거제시 옥포1동  582","sido":"경남","sigungu":"거제시","lat":34.891701,"lng":128.69484,"phone":"055-687-7706","firstPrizeCount":11,"dealType":"auto","recentDraws":[1005,1043,1110,1125,1172]},{"id":"lt-14100118","ltShpId":"14100118","name":"천하명당복권방","roadAddress":"경기 수원시 팔달구 매산로1가 58-20","sido":"경기","sigungu":"수원시","lat":37.266647,"lng":127.00188,"phone":"031-246-1266","firstPrizeCount":11,"dealType":"auto","recentDraws":[884,1072,1088,1107,1189]},{"id":"lt-14190163","ltShpId":"14190163","name":"행운복권방","roadAddress":"경기 포천시 소흘읍  송우리    127-6","sido":"경기","sigungu":"포천시","lat":37.828831,"lng":127.14752,"phone":"031-544-2517","firstPrizeCount":11,"dealType":"auto","recentDraws":[736,924,1006,1019,1184]},{"id":"lt-14510011","ltShpId":"14510011","name":"행운복권방 보생당건강원","roadAddress":"전북 익산시 부송동  216-17","sido":"전북","sigungu":"익산시","lat":35.960347,"lng":126.99724,"phone":"063-831-6040","firstPrizeCount":11,"dealType":"auto","recentDraws":[951,970,1050,1086,1186]},{"id":"lt-14100745","ltShpId":"14100745","name":"다니엘사","roadAddress":"경기 안산시 단원구 원곡동 845-1현대빌라가동101호","sido":"경기","sigungu":"안산시","lat":37.32648,"lng":126.80352,"phone":"031-493-2848","firstPrizeCount":10,"dealType":"manual","recentDraws":[889,1075,1159,1160,1210]},{"id":"lt-14590006","ltShpId":"14590006","name":"또또복권방","roadAddress":"전북 익산시 영등동  827-3","sido":"전북","sigungu":"익산시","lat":35.95981,"lng":126.97169,"phone":"063-835-4472","firstPrizeCount":10,"dealType":"manual","recentDraws":[858,872,906,956,1152]},{"id":"lt-11190016","ltShpId":"11190016","name":"미나식품(로또판매점)","roadAddress":"서울 강서구 방화동  484-23번지","sido":"서울","sigungu":"강서구","lat":37.573514,"lng":126.81068,"phone":"02-2664-6793","firstPrizeCount":10,"dealType":"manual","recentDraws":[1019,1150,1175,1193,1194]},{"id":"lt-12800069","ltShpId":"12800069","name":"복권전문점","roadAddress":"인천 부평구 청천동  236-201층점포","sido":"인천","sigungu":"부평구","lat":37.503708,"lng":126.71512,"firstPrizeCount":10,"dealType":"auto","recentDraws":[777,855,1030,1113,1224]},{"id":"lt-13190041","ltShpId":"13190041","name":"아이러브복권방","roadAddress":"울산 중구 우정동  725-15","sido":"울산","sigungu":"중구","lat":35.556361,"lng":129.30722,"phone":"052-246-9901","firstPrizeCount":10,"dealType":"auto","recentDraws":[790,982,1047,1062,1165]},{"id":"lt-14110334","ltShpId":"14110334","name":"올인(allin)","roadAddress":"경기 화성시 향남면  장짐리    273-3","sido":"경기","sigungu":"화성시","lat":37.135324,"lng":126.91056,"phone":"031-353-5311","firstPrizeCount":10,"dealType":"auto","recentDraws":[646,678,938,1119,1209]},{"id":"lt-14190102","ltShpId":"14190102","name":"종합복권슈퍼","roadAddress":"경기 시흥시 정왕동  1735-2 정일빌딩 104","sido":"경기","sigungu":"시흥시","lat":37.345744,"lng":126.73558,"phone":"031-319-2034","firstPrizeCount":10,"dealType":"auto","recentDraws":[1057,1104,1161,1164,1168]},{"id":"lt-12700075","ltShpId":"12700075","name":"천하명당복권","roadAddress":"대구 북구 관음동  1249-4","sido":"대구","sigungu":"북구","lat":35.944288,"lng":128.55065,"phone":"053-311-0645","firstPrizeCount":10,"dealType":"auto","recentDraws":[1090,1107,1119,1160,1221]},{"id":"lt-14590055","ltShpId":"14590055","name":"현대장미슈퍼","roadAddress":"전북 익산시 어양동 493-12번지 현대아파트1층108호","sido":"전북","sigungu":"익산시","lat":35.955361,"lng":126.98089,"phone":"063-834-2197","firstPrizeCount":10,"dealType":"auto","recentDraws":[1077,1080,1101,1103,1108]},{"id":"lt-14500087","ltShpId":"14500087","name":"흥건슈퍼","roadAddress":"전북 전주시 완산구 삼천동1가 삼천동1가 300-3흥건1차아파트상가109호","sido":"전북","sigungu":"전주시","lat":35.794404,"lng":127.115781,"phone":"063-226-1797","firstPrizeCount":10,"dealType":"semi","recentDraws":[1092,1120,1176,1179,1221]},{"id":"lt-24800023","ltShpId":"24800023","name":"GS25(양산문성)","roadAddress":"경남 양산시 웅상읍 평산리 평산리 31-5","sido":"경남","sigungu":"양산시","lat":35.384815,"lng":129.155072,"phone":"055-367-1289","firstPrizeCount":10,"dealType":"auto","recentDraws":[748,759,871,982,994]},{"id":"lt-14700094","ltShpId":"14700094","name":"NG24","roadAddress":"경북 칠곡군 석적읍  중리   86-8","sido":"경북","sigungu":"칠곡군","lat":36.079802,"lng":128.41185,"phone":"054-977-2555","firstPrizeCount":10,"dealType":"auto","recentDraws":[838,1038,1055,1166,1170]},{"id":"lt-14100023","ltShpId":"14100023","name":"노다지복권방","roadAddress":"경기 시흥시 대야동  345-16 1층상가","sido":"경기","sigungu":"시흥시","lat":37.448231,"lng":126.79207,"phone":"031-314-1016","firstPrizeCount":9,"dealType":"auto","recentDraws":[927,1058,1087,1104,1212]},{"id":"lt-14100149","ltShpId":"14100149","name":"노다지복권방","roadAddress":"경기 용인시 처인구 마평동 735-1","sido":"경기","sigungu":"용인시","lat":37.235192,"lng":127.21056,"phone":"031-336-5781","firstPrizeCount":9,"dealType":"manual","recentDraws":[938,972,1019,1121,1152]},{"id":"lt-12800071","ltShpId":"12800071","name":"노다지복권방","roadAddress":"인천 남구 학익동  264-6외7필지125 126호","sido":"인천","sigungu":"남구","lat":37.443245,"lng":126.66467,"phone":"032-261-2149","firstPrizeCount":9,"dealType":"auto","recentDraws":[945,963,1018,1051,1058]},{"id":"lt-14610073","ltShpId":"14610073","name":"대광복권방","roadAddress":"전남 화순군 화순읍  대리  97-3번지 대광그린상가동 1층109호","sido":"전남","sigungu":"화순군","lat":35.055482,"lng":126.977122,"phone":"061-373-3003","firstPrizeCount":9,"dealType":"manual","recentDraws":[876,948,1140,1158,1174]},{"id":"lt-14110060","ltShpId":"14110060","name":"명당골복권방","roadAddress":"경기 수원시 권선구 권선동 1295-3 104","sido":"경기","sigungu":"수원시","lat":37.251097,"lng":127.03548,"phone":"031-235-4223","firstPrizeCount":9,"dealType":"auto","recentDraws":[825,923,1072,1108,1198]}]