[{"id":"lt-14390030","ltShpId":"14390030","name":"썬마트","roadAddress":"충북 청주시 흥덕구 복대동 2719","sido":"충북","sigungu":"청주시","lat":36.632588,"lng":127.42812,"phone":"043-232-3015","firstPrizeCount":13,"dealType":"auto","recentDraws":[947,999,1055,1140,1204]},{"id":"lt-14310027","ltShpId":"14310027","name":"서울로또방","roadAddress":"충북 옥천군 옥천읍  금구리 174-2","sido":"충북","sigungu":"옥천군","lat":36.299557,"lng":127.56668,"phone":"043-733-5550","firstPrizeCount":7,"dealType":"auto","recentDraws":[902,942,1006,1109,1162]},{"id":"lt-14390011","ltShpId":"14390011","name":"팡팡복권방","roadAddress":"충북 진천군 광혜원면 광혜원리 265-3","sido":"충북","sigungu":"진천군","lat":36.854686,"lng":127.441871,"phone":"043-536-3007","firstPrizeCount":6,"dealType":"manual","recentDraws":[555,690,702,836,1186]},{"id":"lt-14310037","ltShpId":"14310037","name":"해수로또","roadAddress":"충북 청주시 상당구 금천동 261-50","sido":"충북","sigungu":"청주시","lat":36.62615,"lng":127.499379,"phone":"043-221-0479","firstPrizeCount":6,"dealType":"auto","recentDraws":[745,1103,1133,1175,1192]},{"id":"lt-14390009","ltShpId":"14390009","name":"행운복권","roadAddress":"충북 제천시 의림동  24-10","sido":"충북","sigungu":"제천시","lat":37.14232,"lng":128.20864,"phone":"043-652-1088","firstPrizeCount":6,"dealType":"auto","recentDraws":[536,654,659,947,1017]},{"id":"lt-14300004","ltShpId":"14300004","name":"대박찬스","roadAddress":"충북 청주시 흥덕구 가경동 1220번지","sido":"충북","sigungu":"청주시","lat":36.628987,"lng":127.43647,"phone":"043-234-4433","firstPrizeCount":5,"dealType":"auto","recentDraws":[285,985,1008,1162,1197]},{"id":"lt-14310089","ltShpId":"14310089","name":"로또천국","roadAddress":"충북 충주시 칠금동  849번지 충주공영버스터미널1층 터미널매점","sido":"충북","sigungu":"충주시","lat":36.981763,"lng":127.914587,"firstPrizeCount":5,"dealType":"manual","recentDraws":[594,617,826,829,941]},{"id":"lt-14300022","ltShpId":"14300022","name":"복권나라","roadAddress":"충북 증평군 증평읍 중동리 15-3번지","sido":"충북","sigungu":"증평군","lat":36.783937,"lng":127.58088,"phone":"043-836-1113","firstPrizeCount":5,"dealType":"manual","recentDraws":[707,876,902,1063,1084]},{"id":"lt-14300021","ltShpId":"14300021","name":"복권왕국","roadAddress":"충북 제천시 중앙로1가  77지하145","sido":"충북","sigungu":"제천시","lat":37.136637,"lng":128.21126,"phone":"043-646-1842","firstPrizeCount":5,"dealType":"auto","recentDraws":[425,669,746,912,1075]},{"id":"lt-14310100","ltShpId":"14310100","name":"선경로또","roadAddress":"충북 제천시 하소동  351 하소상가 105호","sido":"충북","sigungu":"제천시","lat":37.136294,"lng":128.19934,"phone":"043-642-2002","firstPrizeCount":5,"dealType":"auto","recentDraws":[291,866,875,1131,1202]},{"id":"lt-14300019","ltShpId":"14300019","name":"나래복권","roadAddress":"충북 충주시 목행동 673-6 1층","sido":"충북","sigungu":"충주시","lat":37.010701,"lng":127.915787,"phone":"043-853-3659","firstPrizeCount":4,"dealType":"semi","recentDraws":[902,945,992,1064]},{"id":"lt-14310083","ltShpId":"14310083","name":"로또스튜디오","roadAddress":"충북 청주시 청원구 율량동 01410번지 0","sido":"충북","sigungu":"청주시 청원구","lat":36.666543,"lng":127.481482,"phone":"043-216-3927","firstPrizeCount":4,"dealType":"auto","recentDraws":[661,867,1068,1133]},{"id":"lt-14310068","ltShpId":"14310068","name":"로또판매점","roadAddress":"충북 음성군 대소면 태생리 533-1 비디오대여점","sido":"충북","sigungu":"음성군","lat":36.976542,"lng":127.529289,"phone":"043-882-3715","firstPrizeCount":4,"dealType":"manual","recentDraws":[700,731,779,1223]},{"id":"lt-14310084","ltShpId":"14310084","name":"복권나라","roadAddress":"충북 청주시 상당구 율량동 율량동 882-1","sido":"충북","sigungu":"청주시","lat":36.668504,"lng":127.488233,"phone":"043-215-2628","firstPrizeCount":4,"dealType":"auto","recentDraws":[271,292,738,994]},{"id":"lt-14300042","ltShpId":"14300042","name":"승일유통","roadAddress":"충북 청주시 흥덕구 봉명동 봉명동 200-14번지","sido":"충북","sigungu":"청주시","lat":36.638314,"lng":127.45376,"phone":"043-272-6569","firstPrizeCount":4,"dealType":"auto","recentDraws":[265,752,764,902]},{"id":"lt-14310034","ltShpId":"14310034","name":"오창중앙복권","roadAddress":"충북 청원군  오창읍 오창읍 양청리793-5번지204호","sido":"충북","sigungu":"청원군","lat":36.715075,"lng":127.428939,"phone":"043-215-0645","firstPrizeCount":4,"dealType":"semi","recentDraws":[573,1113,1180,1216]},{"id":"lt-14300097","ltShpId":"14300097","name":"해적책대여점 복권방","roadAddress":"충북 청주시 서원구 사직1동 0 221-20번지 0","sido":"충북","sigungu":"청주시 서원구","lat":36.639976,"lng":127.47936,"phone":"043-268-4578","firstPrizeCount":4,"dealType":"manual","recentDraws":[680,750,992,1149]},{"id":"lt-14310067","ltShpId":"14310067","name":"혹시나도","roadAddress":"충북 음성군 감곡면 왕장리 왕장리 521-9","sido":"충북","sigungu":"음성군","lat":37.119132,"lng":127.639357,"phone":"043-883-3376","firstPrizeCount":4,"dealType":"auto","recentDraws":[275,833,910,932]},{"id":"lt-14390010","ltShpId":"14390010","name":"황금알복권방","roadAddress":"충북 진천군 진천읍 읍내리 403-2","sido":"충북","sigungu":"진천군","lat":36.990042,"lng":127.44531,"phone":"043-535-5358","firstPrizeCount":4,"dealType":"auto","recentDraws":[869,950,1098,1162]},{"id":"lt-14320009","ltShpId":"14320009","name":"(없음)","roadAddress":"충북 청주시 청원구 오창읍 구룡리 401-6 CU편의점","sido":"충북","sigungu":"청주시 청원구","lat":36.605875,"lng":127.504284,"firstPrizeCount":3,"dealType":"auto","recentDraws":[758,1151,1177]},{"id":"lt-14310050","ltShpId":"14310050","name":"대소원로또","roadAddress":"충북 충주시 이류면  대소리39-5","sido":"충북","sigungu":"충주시","lat":36.973249,"lng":127.82358,"phone":"043-851-9534","firstPrizeCount":3,"dealType":"auto","recentDraws":[450,611,1174]},{"id":"lt-14310094","ltShpId":"14310094","name":"로또명당금왕점","roadAddress":"충북 음성군  금왕읍 탑골길 55 세븐일레븐 금왕점","sido":"충북","sigungu":"음성군","lat":36.990975,"lng":127.58637,"phone":"043-881-9010","firstPrizeCount":3,"dealType":"manual","recentDraws":[950,1057,1137]},{"id":"lt-14310064","ltShpId":"14310064","name":"보은로또판매점","roadAddress":"충북 보은군 보은읍 교사리 85-5 보은할인마트내","sido":"충북","sigungu":"보은군","lat":36.489113,"lng":127.71715,"phone":"043-544-1708","firstPrizeCount":3,"dealType":"auto","recentDraws":[715,871,979]},{"id":"lt-14390019","ltShpId":"14390019","name":"복권명당","roadAddress":"충북 청주시 상당구  월평로 152","sido":"충북","sigungu":"청주시 상당구","lat":36.608823,"lng":127.506272,"phone":"043-296-5542","firstPrizeCount":3,"dealType":"auto","recentDraws":[1000,1104,1124]},{"id":"lt-14300018","ltShpId":"14300018","name":"진성식품","roadAddress":"충북 제천시 중앙로1가(인성동) 115-1 1층","sido":"충북","sigungu":"제천시","lat":37.136086,"lng":128.21001,"phone":"043-646-4436","firstPrizeCount":3,"dealType":"semi","recentDraws":[685,772,864]},{"id":"lt-14310078","ltShpId":"14310078","name":"천금복권방","roadAddress":"충북 청주시 상당구 영운동 55-1번지","sido":"충북","sigungu":"청주시 상당구","lat":36.620748,"lng":127.507969,"phone":"043-221-0645","firstPrizeCount":3,"dealType":"auto","recentDraws":[671,680,1126]},{"id":"lt-14320008","ltShpId":"14320008","name":"행운로또","roadAddress":"충북 진천군 진천읍 벽암리 190-1","sido":"충북","sigungu":"진천군","lat":36.904202,"lng":127.53552,"firstPrizeCount":3,"dealType":"auto","recentDraws":[816,857,1181]},{"id":"lt-14310054","ltShpId":"14310054","name":"행운을주는사람들","roadAddress":"충북 충주시 연수동 923번지 1층 복권방","sido":"충북","sigungu":"충주시","lat":36.987646,"lng":127.93162,"phone":"043-847-3377","firstPrizeCount":3,"dealType":"auto","recentDraws":[757,858,875]},{"id":"lt-14300091","ltShpId":"14300091","name":"행운의명당로-토토","roadAddress":"충북 청주시 흥덕구 개신동 443번지","sido":"충북","sigungu":"청주시","lat":36.625114,"lng":127.46802,"phone":"043-266-3288","firstPrizeCount":3,"dealType":"auto","recentDraws":[369,812,1207]},{"id":"lt-14340027","ltShpId":"14340027","name":"혁신대박","roadAddress":"충북 음성군  원중로 1434 103호(에스타워)","sido":"충북","sigungu":"음성군","lat":36.909505,"lng":127.54107,"firstPrizeCount":3,"dealType":"auto","recentDraws":[952,1086,1152]},{"id":"lt-24300008","ltShpId":"24300008","name":"GS25(청주수곡점)","roadAddress":"충북 청주시 서원구 수곡동 910","sido":"충북","sigungu":"청주시 서원구","lat":36.616052,"lng":127.472957,"phone":"043-286-9777","firstPrizeCount":3,"dealType":"manual","recentDraws":[757,911,971]},{"id":"lt-14300052","ltShpId":"14300052","name":"공단휴게실","roadAddress":"충북 청주시 흥덕구 복대동 100-15번지","sido":"충북","sigungu":"청주시","lat":36.637927,"lng":127.442409,"phone":"043-263-2436","firstPrizeCount":2,"dealType":"auto","recentDraws":[268,416]},{"id":"lt-14340020","ltShpId":"14340020","name":"금강로또","roadAddress":"충북 옥천군  금강로 596 금강휴게소","sido":"충북","sigungu":"옥천군","lat":36.279103,"lng":127.67147,"firstPrizeCount":2,"dealType":"auto","recentDraws":[1111,1120]},{"id":"lt-14320013","ltShpId":"14320013","name":"금능마트","roadAddress":"충북 충주시  후곡길 19 금능마트","sido":"충북","sigungu":"충주시","lat":36.993133,"lng":127.93131,"phone":"043-843-9790","firstPrizeCount":2,"dealType":"auto","recentDraws":[940,951]},{"id":"lt-14300030","ltShpId":"14300030","name":"대박","roadAddress":"충북 청주시 상당구 용담동 398","sido":"충북","sigungu":"청주시","lat":36.631063,"lng":127.506174,"firstPrizeCount":2,"dealType":"auto","recentDraws":[423,651]},{"id":"lt-14310028","ltShpId":"14310028","name":"도깨비 복권 전문점","roadAddress":"충북 증평군 증평읍  교동리  154-3번지","sido":"충북","sigungu":"증평군","lat":36.784278,"lng":127.585044,"phone":"043-836-8272","firstPrizeCount":2,"dealType":"manual","recentDraws":[642,885]},{"id":"lt-14340243","ltShpId":"14340243","name":"동남운천복권","roadAddress":"충북 청주시 상당구  중고개로125번길 17","sido":"충북","sigungu":"청주시 상당구","lat":36.61543,"lng":127.517414,"firstPrizeCount":2,"dealType":"auto","recentDraws":[1144,1201]},{"id":"lt-14310005","ltShpId":"14310005","name":"돼지복권","roadAddress":"충북 청주시 흥덕구 사직동 236-17 청주대교 앞","sido":"충북","sigungu":"청주시","lat":36.636571,"lng":127.482654,"firstPrizeCount":2,"dealType":"auto","recentDraws":[537,553]},{"id":"lt-14310086","ltShpId":"14310086","name":"로또복권","roadAddress":"충북 청주시 상당구 탑동(탑대성동) 60-11 103호","sido":"충북","sigungu":"청주시 상당구","lat":36.630768,"lng":127.502733,"phone":"043-233-6342","firstPrizeCount":2,"dealType":"manual","recentDraws":[763,1123]},{"id":"lt-14310032","ltShpId":"14310032","name":"로또복권방","roadAddress":"충북 청주시 청원구 내수읍 내수리 36-19 디지털프라자 옆","sido":"충북","sigungu":"청주시 청원구","lat":36.726449,"lng":127.535784,"phone":"043-213-3175","firstPrizeCount":2,"dealType":"auto","recentDraws":[836,1204]},{"id":"lt-14310017","ltShpId":"14310017","name":"로또복권방분평점","roadAddress":"충북 청주시 서원구 분평동 1258번지","sido":"충북","sigungu":"청주시 서원구","lat":36.611186,"lng":127.49354,"phone":"043-287-2259","firstPrizeCount":2,"dealType":"manual","recentDraws":[841,1128]},{"id":"lt-14390004","ltShpId":"14390004","name":"복권나라","roadAddress":"충북 청주시 상당구 남문로1가 137-2번지","sido":"충북","sigungu":"청주시 상당구","lat":36.629225,"lng":127.491034,"phone":"043-250-5288","firstPrizeCount":2,"dealType":"auto","recentDraws":[654,1131]},{"id":"lt-14330012","ltShpId":"14330012","name":"복드림로또판매점","roadAddress":"충북 충주시  첨단산업9로 13 1충","sido":"충북","sigungu":"충주시","lat":36.998962,"lng":127.84055,"phone":"043-857-7432","firstPrizeCount":2,"dealType":"semi","recentDraws":[935,1194]},{"id":"lt-14300069","ltShpId":"14300069","name":"세명24시로또","roadAddress":"충북 제천시  바이오밸리로  211 3호","sido":"충북","sigungu":"제천시","lat":37.156239,"lng":128.17348,"phone":"043-642-8249","firstPrizeCount":2,"dealType":"auto","recentDraws":[1230,973]},{"id":"lt-14340295","ltShpId":"14340295","name":"세븐복권","roadAddress":"충북 증평군  초중6길 19 1층(세븐일레븐 내)","sido":"충북","sigungu":"증평군","lat":36.776863,"lng":127.569044,"firstPrizeCount":2,"dealType":"auto","recentDraws":[1161,1220]},{"id":"lt-14310041","ltShpId":"14310041","name":"신봉","roadAddress":"충북 청주시 흥덕구 신봉동 168-8번지신봉삼성아파트3단지 앞도로변","sido":"충북","sigungu":"청주시","lat":36.655722,"lng":127.469375,"phone":"043-276-6689","firstPrizeCount":2,"dealType":"auto","recentDraws":[554,596]},{"id":"lt-14300023","ltShpId":"14300023","name":"심마니대박복권방","roadAddress":"충북 충주시 교현동(교현2동) 615-1","sido":"충북","sigungu":"충주시","lat":36.977453,"lng":127.92789,"phone":"043-855-2110","firstPrizeCount":2,"dealType":"auto","recentDraws":[772,1082]},{"id":"lt-14300051","ltShpId":"14300051","name":"영신슈퍼","roadAddress":"충북 청주시 흥덕구 모충동 모충동 122-11번지","sido":"충북","sigungu":"청주시","lat":36.621256,"lng":127.48744,"phone":"043-283-7494","firstPrizeCount":2,"dealType":"auto","recentDraws":[287,977]},{"id":"lt-14340181","ltShpId":"14340181","name":"오사랑복권","roadAddress":"충북 청주시 흥덕구  진재로 42","sido":"충북","sigungu":"청주시 흥덕구","lat":36.634962,"lng":127.42966,"firstPrizeCount":2,"dealType":"manual","recentDraws":[1151,1175]},{"id":"lt-14310035","ltShpId":"14310035","name":"왕대박복권방","roadAddress":"충북 청주시 청원구 오창읍 장대리 305번지","sido":"충북","sigungu":"청주시 청원구","lat":36.741097,"lng":127.453437,"phone":"043-211-2045","firstPrizeCount":2,"dealType":"manual","recentDraws":[838,1162]},{"id":"lt-14300050","ltShpId":"14300050","name":"월드마트","roadAddress":"충북 청주시 흥덕구 복대동 2405번지","sido":"충북","sigungu":"청주시","lat":36.624786,"lng":127.44758,"phone":"043-274-4578","firstPrizeCount":2,"dealType":"auto","recentDraws":[456,844]},{"id":"lt-14320011","ltShpId":"14320011","name":"중앙복권방","roadAddress":"충북 청주시 청원구 율량동 2155","sido":"충북","sigungu":"청주시 청원구","lat":36.665708,"lng":127.50038,"firstPrizeCount":2,"dealType":"manual","recentDraws":[1228,795]},{"id":"lt-14310051","ltShpId":"14310051","name":"충주복권명당","roadAddress":"충북 충주시 호암동 553","sido":"충북","sigungu":"충주시","lat":36.961016,"lng":127.92913,"firstPrizeCount":2,"dealType":"manual","recentDraws":[738,773]},{"id":"lt-14330018","ltShpId":"14330018","name":"콕콕로또명당옥천점","roadAddress":"충북 옥천군  서대구일로 265-19 옥천하휴게소","sido":"충북","sigungu":"옥천군","lat":36.296947,"lng":127.5957,"firstPrizeCount":2,"dealType":"auto","recentDraws":[1074,1119]},{"id":"lt-14330016","ltShpId":"14330016","name":"쿡쿡로또명당","roadAddress":"충북 옥천군 옥천읍 금구리 31-1 세븐일레븐편의점","sido":"충북","sigungu":"옥천군","lat":36.300303,"lng":127.57118,"firstPrizeCount":2,"dealType":"auto","recentDraws":[873,1196]},{"id":"lt-14340203","ltShpId":"14340203","name":"터미널복권","roadAddress":"충북 충주시  봉계1길 49 충주터미널1층","sido":"충북","sigungu":"충주시","lat":36.981136,"lng":127.91502,"firstPrizeCount":2,"dealType":"manual","recentDraws":[1110,1192]},{"id":"lt-14390028","ltShpId":"14390028","name":"터미널슈퍼","roadAddress":"충북 청주시 흥덕구 가경동 1451-2번지","sido":"충북","sigungu":"청주시 흥덕구","lat":36.625883,"lng":127.43376,"phone":"043-233-9489","firstPrizeCount":2,"dealType":"auto","recentDraws":[791,831]},{"id":"lt-14390020","ltShpId":"14390020","name":"행운복권방","roadAddress":"충북 청주시 상당구  단재로 119","sido":"충북","sigungu":"청주시 상당구","lat":36.618726,"lng":127.498006,"phone":"043-255-0210","firstPrizeCount":2,"dealType":"auto","recentDraws":[1019,1039]},{"id":"lt-14390003","ltShpId":"14390003","name":"행운예감","roadAddress":"충북 충주시 지현동  326","sido":"충북","sigungu":"충주시","lat":36.973412,"lng":127.92331,"phone":"043-848-6007","firstPrizeCount":2,"dealType":"auto","recentDraws":[533,589]},{"id":"lt-14310109","ltShpId":"14310109","name":"홈짱","roadAddress":"충북 청주시 흥덕구 가경동 가경동 1671","sido":"충북","sigungu":"청주시","lat":36.617182,"lng":127.443379,"phone":"043-234-5654","firstPrizeCount":2,"dealType":"auto","recentDraws":[309,867]},{"id":"lt-24300016","ltShpId":"24300016","name":"CU(제천고암점)","roadAddress":"충북 제천시  청전동 4-95번지","sido":"충북","sigungu":"제천시","lat":37.157856,"lng":128.214669,"phone":"043-644-5222","firstPrizeCount":2,"dealType":"auto","recentDraws":[677,1033]},{"id":"lt-24300017","ltShpId":"24300017","name":"CU(제천역점)","roadAddress":"충북 제천시  화산동 208-1번지","sido":"충북","sigungu":"제천시","lat":37.129703,"lng":128.206737,"phone":"043-647-5532","firstPrizeCount":2,"dealType":"manual","recentDraws":[623,680]},{"id":"lt-14340082","ltShpId":"14340082","name":"21세기로또","roadAddress":"충북 제천시  의림대로 234-2 1층","sido":"충북","sigungu":"제천시","lat":37.148149,"lng":128.21475,"firstPrizeCount":1,"dealType":"semi","recentDraws":[979]},{"id":"lt-14300005","ltShpId":"14300005","name":"경기복권방","roadAddress":"충북 충주시 가금면 용전리 용전리 380-4","sido":"충북","sigungu":"충주시","lat":37.02401,"lng":127.837441,"phone":"043-855-0238","firstPrizeCount":1,"dealType":"auto","recentDraws":[322]},{"id":"lt-14340088","ltShpId":"14340088","name":"나도일등광혜원","roadAddress":"충북 진천군  화랑5길  24-7","sido":"충북","sigungu":"진천군","lat":36.993086,"lng":127.43934,"firstPrizeCount":1,"dealType":"auto","recentDraws":[974]},{"id":"lt-14340130","ltShpId":"14340130","name":"나래종합상사","roadAddress":"충북 괴산군  읍내로 273","sido":"충북","sigungu":"괴산군","lat":36.807777,"lng":127.79351,"phone":"043-833-8959","firstPrizeCount":1,"dealType":"manual","recentDraws":[1128]},{"id":"lt-14300020","ltShpId":"14300020","name":"남운유통","roadAddress":"충북 충주시  애향로 40 1층","sido":"충북","sigungu":"충주시","lat":36.973762,"lng":127.91424,"phone":"043-855-7739","firstPrizeCount":1,"dealType":"manual","recentDraws":[987]},{"id":"lt-14310096","ltShpId":"14310096","name":"노다지복권방","roadAddress":"충북 음성군  장감로 161-1 1층복권방","sido":"충북","sigungu":"음성군","lat":37.118762,"lng":127.6404,"firstPrizeCount":1,"dealType":"auto","recentDraws":[1073]},{"id":"lt-14340246","ltShpId":"14340246","name":"노란공인중개사사무소","roadAddress":"충북 청주시 흥덕구 서부로 1093 공인중개사사무실","sido":"충북","sigungu":"청주시 흥덕구","lat":36.609766,"lng":127.42308,"phone":"043-233-6111","firstPrizeCount":1,"dealType":"auto","recentDraws":[1222]},{"id":"lt-14340158","ltShpId":"14340158","name":"다복복권","roadAddress":"충북 진천군 덕금로 792 1층 (세븐일레븐내)","sido":"충북","sigungu":"진천군","lat":36.911865,"lng":127.50573,"firstPrizeCount":1,"dealType":"manual","recentDraws":[1213]},{"id":"lt-14390012","ltShpId":"14390012","name":"대박마트","roadAddress":"충북 청주시 상당구 용암동 2108번지 주공상가점포103","sido":"충북","sigungu":"청주시 상당구","lat":36.614693,"lng":127.509822,"phone":"043-293-1355","firstPrizeCount":1,"dealType":"manual","recentDraws":[903]},{"id":"lt-14300084","ltShpId":"14300084","name":"대박복권판매점","roadAddress":"충북 충주시 문화동  730번지","sido":"충북","sigungu":"충주시","lat":36.973725,"lng":127.92693,"phone":"043-854-2635","firstPrizeCount":1,"dealType":"auto","recentDraws":[605]},{"id":"lt-14340097","ltShpId":"14340097","name":"대풍로또","roadAddress":"충북 청주시 상당구  청남로 2178-1","sido":"충북","sigungu":"청주시 상당구","lat":36.626221,"lng":127.490097,"firstPrizeCount":1,"dealType":"manual","recentDraws":[1128]},{"id":"lt-14340167","ltShpId":"14340167","name":"드림복권방","roadAddress":"충북 청주시 흥덕구  내수동로42번길 4","sido":"충북","sigungu":"청주시 흥덕구","lat":36.63258,"lng":127.45195,"firstPrizeCount":1,"dealType":"auto","recentDraws":[1158]},{"id":"lt-14300029","ltShpId":"14300029","name":"럭키뱅크복권방","roadAddress":"충북 청주시 흥덕구 수곡동 80-20번지","sido":"충북","sigungu":"청주시","lat":36.618842,"lng":127.48728,"phone":"043-288-2628","firstPrizeCount":1,"dealType":"auto","recentDraws":[474]},{"id":"lt-14340302","ltShpId":"14340302","name":"로또 복권방","roadAddress":"충북 청주시 흥덕구  서현로 60 138호","sido":"충북","sigungu":"청주시 흥덕구","lat":36.617512,"lng":127.42863,"firstPrizeCount":1,"dealType":"semi","recentDraws":[1154]},{"id":"lt-14340013","ltShpId":"14340013","name":"로또다 로또","roadAddress":"충북 청주시 청원구 오창읍 주성리 640 편의점","sido":"충북","sigungu":"청주시 청원구","lat":36.731723,"lng":127.450472,"phone":"043-211-1179","firstPrizeCount":1,"dealType":"manual","recentDraws":[742]},{"id":"lt-14340016","ltShpId":"14340016","name":"로또마당","roadAddress":"충북 충주시  국원대로 356 1층 세븐일레븐","sido":"충북","sigungu":"충주시","lat":37.003191,"lng":127.93002,"firstPrizeCount":1,"dealType":"auto","recentDraws":[938]},{"id":"lt-14310106","ltShpId":"14310106","name":"로또명당","roadAddress":"충북 진천군 진천읍 벽암리 벽암리 190-2","sido":"충북","sigungu":"진천군","lat":36.871677,"lng":127.43315,"firstPrizeCount":1,"dealType":"manual","recentDraws":[288]},{"id":"lt-14340050","ltShpId":"14340050","name":"로또명당 수곡점","roadAddress":"충북 청주시 서원구  구룡산로 341","sido":"충북","sigungu":"청주시 서원구","lat":36.618532,"lng":127.482316,"firstPrizeCount":1,"dealType":"auto","recentDraws":[1119]},{"id":"lt-14310076","ltShpId":"14310076","name":"로또명당 청원점","roadAddress":"충북 청주시 청원구 오창읍 각리 651-3번지 금일프라자 102호","sido":"충북","sigungu":"청주시 청원구","lat":36.708596,"lng":127.414214,"phone":"043-211-6256","firstPrizeCount":1,"dealType":"manual","recentDraws":[677]},{"id":"lt-14310092","ltShpId":"14310092","name":"로또명당매화점","roadAddress":"충북 옥천군 옥천읍 매화리 매화리 36-6","sido":"충북","sigungu":"옥천군","lat":36.299209,"lng":127.59752,"phone":"043-733-0556","firstPrizeCount":1,"dealType":"manual","recentDraws":[280]},{"id":"lt-14340086","ltShpId":"14340086","name":"로또방","roadAddress":"충북 증평군  중앙로 176","sido":"충북","sigungu":"증평군","lat":36.782046,"lng":127.579178,"firstPrizeCount":1,"dealType":"manual","recentDraws":[1050]},{"id":"lt-14340239","ltShpId":"14340239","name":"로또판매 행운점","roadAddress":"충북 청주시 청원구  충청대로 97","sido":"충북","sigungu":"청주시 청원구","lat":36.665315,"lng":127.492956,"firstPrizeCount":1,"dealType":"manual","recentDraws":[1140]},{"id":"lt-14330002","ltShpId":"14330002","name":"로또판매점","roadAddress":"충북 청주시 서원구 현도면 선동리 502-5 gs25편의점","sido":"충북","sigungu":"청주시 서원구","lat":36.486912,"lng":127.423378,"phone":"043-260-5115","firstPrizeCount":1,"dealType":"auto","recentDraws":[861]},{"id":"lt-14390023","ltShpId":"14390023","name":"로또하복대두진점","roadAddress":"충북 청주시 흥덕구  증안로 33 두진백로상가1층102호","sido":"충북","sigungu":"청주시 흥덕구","lat":36.636805,"lng":127.42671,"phone":"043-237-7979","firstPrizeCount":1,"dealType":"auto","recentDraws":[1091]},{"id":"lt-14340007","ltShpId":"14340007","name":"만복편의점","roadAddress":"충북 청주시 흥덕구 봉명동(봉명1동) 900","sido":"충북","sigungu":"청주시 흥덕구","lat":36.64026,"lng":127.460855,"firstPrizeCount":1,"dealType":"manual","recentDraws":[874]},{"id":"lt-14310001","ltShpId":"14310001","name":"만복편의점","roadAddress":"충북 청주시 흥덕구 1순환로 595","sido":"충북","sigungu":"청주시 흥덕구","lat":36.640272,"lng":127.46084,"phone":"043-238-1515","firstPrizeCount":1,"dealType":"auto","recentDraws":[1225]},{"id":"lt-14300035","ltShpId":"14300035","name":"맨유편의점","roadAddress":"충북 청주시 흥덕구 봉명동(봉명2.송정동) 2758 두진메인빌 상가 105호","sido":"충북","sigungu":"청주시 흥덕구","lat":36.65158,"lng":127.4576,"phone":"043-268-5549","firstPrizeCount":1,"dealType":"manual","recentDraws":[765]},{"id":"lt-14310102","ltShpId":"14310102","name":"명당복권방","roadAddress":"충북 청주시 청원구 주성동 163-3","sido":"충북","sigungu":"청주시 청원구","lat":36.677175,"lng":127.497652,"phone":"043-211-3754","firstPrizeCount":1,"dealType":"auto","recentDraws":[886]},{"id":"lt-14340126","ltShpId":"14340126","name":"문화럭키 판매점","roadAddress":"충북 충주시  사직로 257-1 1층 2호","sido":"충북","sigungu":"충주시","lat":36.96917,"lng":127.9398,"firstPrizeCount":1,"dealType":"auto","recentDraws":[1068]},{"id":"lt-14330003","ltShpId":"14330003","name":"민우로또","roadAddress":"충북 청주시 서원구 장암동 326-1","sido":"충북","sigungu":"청주시 서원구","lat":36.59404,"lng":127.487007,"phone":"043-284-1388","firstPrizeCount":1,"dealType":"auto","recentDraws":[720]},{"id":"lt-14340357","ltShpId":"14340357","name":"바다 복권판매점","roadAddress":"충북 청주시 청원구 직지대로 855","sido":"충북","sigungu":"청주시 청원구","lat":36.649758,"lng":127.485124,"firstPrizeCount":1,"dealType":"auto","recentDraws":[1220]},{"id":"lt-14300089","ltShpId":"14300089","name":"방아다리24시","roadAddress":"충북 청주시 상당구 수동  450-4번지","sido":"충북","sigungu":"청주시 상당구","lat":36.644943,"lng":127.489808,"phone":"043-256-6855","firstPrizeCount":1,"dealType":"manual","recentDraws":[575]},{"id":"lt-14340094","ltShpId":"14340094","name":"별복권방","roadAddress":"충북 청주시 흥덕구 덕암로114번길 28 1층","sido":"충북","sigungu":"청주시 흥덕구","lat":36.650028,"lng":127.46118,"phone":"070-8285-5029","firstPrizeCount":1,"dealType":"auto","recentDraws":[1205]},{"id":"lt-14310090","ltShpId":"14310090","name":"보은로또","roadAddress":"충북 보은군  보은로 140-1","sido":"충북","sigungu":"보은군","lat":36.486723,"lng":127.71798,"phone":"043-543-2119","firstPrizeCount":1,"dealType":"auto","recentDraws":[1168]},{"id":"lt-14390002","ltShpId":"14390002","name":"복권나라","roadAddress":"충북 제천시  청풍호로 52 1층","sido":"충북","sigungu":"제천시","lat":37.126526,"lng":128.20275,"phone":"043-646-5708","firstPrizeCount":1,"dealType":"auto","recentDraws":[1025]},{"id":"lt-14390007","ltShpId":"14390007","name":"복권마을","roadAddress":"충북 충주시 봉방동  57-1번지","sido":"충북","sigungu":"충주시","lat":36.976875,"lng":127.92121,"phone":"043-848-4345","firstPrizeCount":1,"dealType":"auto","recentDraws":[342]},{"id":"lt-14310014","ltShpId":"14310014","name":"복권방","roadAddress":"충북 청주시 흥덕구 봉명동 봉명동 2687","sido":"충북","sigungu":"청주시","lat":36.665715,"lng":127.45194,"phone":"043-274-5027","firstPrizeCount":1,"dealType":"manual","recentDraws":[296]},{"id":"lt-14310015","ltShpId":"14310015","name":"복덩어리","roadAddress":"충북 청주시 서원구 사직동 639-16","sido":"충북","sigungu":"청주시 서원구","lat":36.607447,"lng":127.4893,"phone":"043-298-5001","firstPrizeCount":1,"dealType":"auto","recentDraws":[836]},{"id":"lt-14340197","ltShpId":"14340197","name":"복앤돈복권방","roadAddress":"충북 충주시  충원대로 1528 103호","sido":"충북","sigungu":"충주시","lat":37.010302,"lng":127.91592,"firstPrizeCount":1,"dealType":"manual","recentDraws":[1051]},{"id":"lt-14320010","ltShpId":"14320010","name":"복터져","roadAddress":"충북 청주시 청원구 주중동 952번지 103호","sido":"충북","sigungu":"청주시 청원구","lat":36.673288,"lng":127.490052,"firstPrizeCount":1,"dealType":"semi","recentDraws":[640]},{"id":"lt-14390037","ltShpId":"14390037","name":"부영상회","roadAddress":"충북 충주시  칠금중앙로 38 1층","sido":"충북","sigungu":"충주시","lat":36.98178,"lng":127.91909,"phone":"043-845-3374","firstPrizeCount":1,"dealType":"manual","recentDraws":[1190]},{"id":"lt-14300078","ltShpId":"14300078","name":"비엠복권","roadAddress":"충북 청주시 흥덕구  대신로 108","sido":"충북","sigungu":"청주시 흥덕구","lat":36.642589,"lng":127.43547,"firstPrizeCount":1,"dealType":"auto","recentDraws":[1146]},{"id":"lt-14340339","ltShpId":"14340339","name":"비하로또명당","roadAddress":"충북 청주시 흥덕구  2순환로 1052 1층 휴대폰싸게파는집 내부","sido":"충북","sigungu":"청주시 흥덕구","lat":36.640918,"lng":127.4219,"firstPrizeCount":1,"dealType":"auto","recentDraws":[1201]},{"id":"lt-14340107","ltShpId":"14340107","name":"세븐마트","roadAddress":"충북 청주시 흥덕구  2순환로 1106","sido":"충북","sigungu":"청주시 흥덕구","lat":36.635745,"lng":127.42052,"firstPrizeCount":1,"dealType":"semi","recentDraws":[1120]},{"id":"lt-14340294","ltShpId":"14340294","name":"스마일로또","roadAddress":"충북 제천시  신죽하로 83-11 1층 GS25 편의점 내","sido":"충북","sigungu":"제천시","lat":37.159932,"lng":128.22205,"firstPrizeCount":1,"dealType":"auto","recentDraws":[1204]},{"id":"lt-14390036","ltShpId":"14390036","name":"썬마트(충주연안점)","roadAddress":"충북 충주시 연수동  716-1","sido":"충북","sigungu":"충주시","lat":36.988783,"lng":127.93112,"phone":"043-852-5645","firstPrizeCount":1,"dealType":"auto","recentDraws":[456]},{"id":"lt-14340170","ltShpId":"14340170","name":"씨유 율량칸타빌 4차점","roadAddress":"충북 청주시 청원구  율중로 19 편의점","sido":"충북","sigungu":"청주시 청원구","lat":36.660393,"lng":127.50668,"phone":"043-214-2865","firstPrizeCount":1,"dealType":"auto","recentDraws":[1192]},{"id":"lt-14340205","ltShpId":"14340205","name":"영광로또","roadAddress":"충북 충주시  충청대로 2220-2 1층","sido":"충북","sigungu":"충주시","lat":36.962311,"lng":127.88233,"firstPrizeCount":1,"dealType":"auto","recentDraws":[993]},{"id":"lt-14320005","ltShpId":"14320005","name":"영로또","roadAddress":"충북 음성군 대소면 오산리 114-30 GS25대소파크점","sido":"충북","sigungu":"음성군","lat":36.906123,"lng":127.54642,"firstPrizeCount":1,"dealType":"manual","recentDraws":[674]},{"id":"lt-14340143","ltShpId":"14340143","name":"오징어게임복권방","roadAddress":"충북 음성군 대금로 602 101호","sido":"충북","sigungu":"음성군","lat":36.96752,"lng":127.505235,"firstPrizeCount":1,"firstPrizeDraws":[1230],"dealType":"auto"},{"id":"lt-14330004","ltShpId":"14330004","name":"오창돼지토토","roadAddress":"충북 청주시 청원구  2산단3로 12 101호","sido":"충북","sigungu":"청주시 청원구","lat":36.736062,"lng":127.455007,"phone":"043-216-3567","firstPrizeCount":1,"dealType":"auto","recentDraws":[1067]},{"id":"lt-14310036","ltShpId":"14310036","name":"옥산행운로또복권방","roadAddress":"충북 청원군 옥산면 오산리 196-7","sido":"충북","sigungu":"청원군","lat":36.663921,"lng":127.374754,"phone":"043-278-3737","firstPrizeCount":1,"dealType":"auto","recentDraws":[402]},{"id":"lt-14340068","ltShpId":"14340068","name":"옥천로또","roadAddress":"충북 옥천군 삼양로 8 세븐일레븐","sido":"충북","sigungu":"옥천군","lat":36.308055,"lng":127.56305,"firstPrizeCount":1,"dealType":"manual","recentDraws":[1207]},{"id":"lt-14300053","ltShpId":"14300053","name":"왕대박유통","roadAddress":"충북 청주시 흥덕구  서현동로 25 화인프라자 1층","sido":"충북","sigungu":"청주시 흥덕구","lat":36.624508,"lng":127.42925,"phone":"043-276-9195","firstPrizeCount":1,"dealType":"auto","recentDraws":[1090]},{"id":"lt-14340219","ltShpId":"14340219","name":"원대박","roadAddress":"충북 음성군  대금로 1064-20 101호","sido":"충북","sigungu":"음성군","lat":36.979343,"lng":127.55461,"firstPrizeCount":1,"dealType":"auto","recentDraws":[1173]},{"id":"lt-14300082","ltShpId":"14300082","name":"위드미청주예체로점","roadAddress":"충북 청주시 서원구  예체로19번길 3","sido":"충북","sigungu":"청주시 서원구","lat":36.627773,"lng":127.4686,"phone":"043-272-8560","firstPrizeCount":1,"dealType":"auto","recentDraws":[947]},{"id":"lt-14310093","ltShpId":"14310093","name":"은성로또","roadAddress":"충북 음성군 감곡면 왕장리 447-11번지 1층 낚시가게","sido":"충북","sigungu":"음성군","lat":37.118335,"lng":127.63552,"phone":"043-881-3677","firstPrizeCount":1,"dealType":"auto","recentDraws":[883]},{"id":"lt-14390033","ltShpId":"14390033","name":"이마트24사창대로점","roadAddress":"충북 청주시 서원구 사창동 185-1","sido":"충북","sigungu":"청주시 서원구","lat":36.636938,"lng":127.45974,"phone":"043-273-3223","firstPrizeCount":1,"dealType":"auto","recentDraws":[918]},{"id":"lt-14310108","ltShpId":"14310108","name":"인생역전로또","roadAddress":"충북 청주시 상당구 용암동 1795번지","sido":"충북","sigungu":"청주시 상당구","lat":36.606074,"lng":127.505028,"phone":"043-294-5954","firstPrizeCount":1,"dealType":"auto","recentDraws":[663]},{"id":"lt-14340039","ltShpId":"14340039","name":"일등대박복권방","roadAddress":"충북 진천군  중앙동로 74-1 1층","sido":"충북","sigungu":"진천군","lat":36.856535,"lng":127.44515,"phone":"043-536-0066","firstPrizeCount":1,"dealType":"manual","recentDraws":[1192]},{"id":"lt-14390001","ltShpId":"14390001","name":"일등복권방","roadAddress":"충북 청주시 흥덕구 복대동 849-2","sido":"충북","sigungu":"청주시","lat":36.633948,"lng":127.44839,"phone":"043-263-8333","firstPrizeCount":1,"dealType":"manual","recentDraws":[371]},{"id":"lt-14340188","ltShpId":"14340188","name":"일등복권방","roadAddress":"충북 청주시 서원구  매봉로 26-1 분평계룡리슈빌아파트 단지내 상가동 102호","sido":"충북","sigungu":"청주시 서원구","lat":36.612599,"lng":127.47829,"firstPrizeCount":1,"dealType":"auto","recentDraws":[1148]},{"id":"lt-14340034","ltShpId":"14340034","name":"장락복권판매점","roadAddress":"충북 제천시 장락동(교동) 637-3 1층","sido":"충북","sigungu":"제천시","lat":37.152005,"lng":128.22114,"firstPrizeCount":1,"dealType":"manual","recentDraws":[897]},{"id":"lt-14340078","ltShpId":"14340078","name":"제천시현로또점","roadAddress":"충북 제천시  의림대로 340 GS25","sido":"충북","sigungu":"제천시","lat":37.157415,"lng":128.21222,"phone":"043-644-4225","firstPrizeCount":1,"dealType":"manual","recentDraws":[1200]},{"id":"lt-14310011","ltShpId":"14310011","name":"찬스복권","roadAddress":"충북 청주시 서원구 분평동 1372번지 금송빌딩104호","sido":"충북","sigungu":"청주시 서원구","lat":36.607519,"lng":127.489922,"phone":"043-295-8781","firstPrizeCount":1,"dealType":"auto","recentDraws":[780]},{"id":"lt-14300071","ltShpId":"14300071","name":"창운로또","roadAddress":"충북 청주시 흥덕구 오송읍 만수리533번지오렌지상가 102호","sido":"충북","sigungu":"청주시","lat":36.630149,"lng":127.332323,"phone":"043-273-5507","firstPrizeCount":1,"dealType":"manual","recentDraws":[632]},{"id":"lt-14340178","ltShpId":"14340178","name":"청남로또","roadAddress":"충북 청주시 상당구  단재로 742","sido":"충북","sigungu":"청주시 상당구","lat":36.565523,"lng":127.509564,"firstPrizeCount":1,"dealType":"manual","recentDraws":[1178]},{"id":"lt-14390034","ltShpId":"14390034","name":"터지는복권방","roadAddress":"충북 청주시 흥덕구 수곡동 74-41번지1층","sido":"충북","sigungu":"청주시","lat":36.613619,"lng":127.48585,"phone":"043-283-3008","firstPrizeCount":1,"dealType":"manual","recentDraws":[557]},{"id":"lt-14390013","ltShpId":"14390013","name":"토토원","roadAddress":"충북 청주시 청원구 율량동 1816번지","sido":"충북","sigungu":"청주시","lat":36.665723,"lng":127.486279,"phone":"043-212-9924","firstPrizeCount":1,"dealType":"manual","recentDraws":[628]},{"id":"lt-14300056","ltShpId":"14300056","name":"편의점사랑(그린신화점)","roadAddress":"충북 청주시 청원구 내덕동 413-2번지","sido":"충북","sigungu":"청주시 청원구","lat":36.66208,"lng":127.491515,"phone":"043-215-7771","firstPrizeCount":1,"dealType":"auto","recentDraws":[851]},{"id":"lt-14300074","ltShpId":"14300074","name":"포커스봉명점","roadAddress":"충북 청주시 흥덕구 봉명동 168-1번지","sido":"충북","sigungu":"청주시","lat":36.643084,"lng":127.45556,"phone":"043-274-9440","firstPrizeCount":1,"dealType":"manual","recentDraws":[471]},{"id":"lt-14390031","ltShpId":"14390031","name":"피쉬복권방","roadAddress":"충북 청주시 흥덕구 봉명동 489번지 15통 4반","sido":"충북","sigungu":"청주시","lat":36.646514,"lng":127.46521,"phone":"043-275-2545","firstPrizeCount":1,"dealType":"auto","recentDraws":[383]},{"id":"lt-14310098","ltShpId":"14310098","name":"한마음","roadAddress":"충북 제천시 신백동  110-11","sido":"충북","sigungu":"제천시","lat":37.151555,"lng":128.224208,"phone":"043-646-2273","firstPrizeCount":1,"dealType":"auto","recentDraws":[362]},{"id":"lt-14340041","ltShpId":"14340041","name":"행복복권방","roadAddress":"충북 청주시 흥덕구  풍년로 26","sido":"충북","sigungu":"청주시 흥덕구","lat":36.616212,"lng":127.44083,"firstPrizeCount":1,"dealType":"auto","recentDraws":[1159]},{"id":"lt-14300039","ltShpId":"14300039","name":"행운복권방","roadAddress":"충북 청주시 서원구 분평동 246-24번지 1층 편의점","sido":"충북","sigungu":"청주시 서원구","lat":36.610881,"lng":127.484203,"phone":"043-284-1188","firstPrizeCount":1,"dealType":"manual","recentDraws":[767]},{"id":"lt-14390014","ltShpId":"14390014","name":"행운복권방","roadAddress":"충북 청주시 흥덕구 복대동 15-1번지","sido":"충북","sigungu":"청주시 흥덕구","lat":36.635035,"lng":127.44065,"phone":"043-233-0645","firstPrizeCount":1,"dealType":"manual","recentDraws":[831]},{"id":"lt-14300041","ltShpId":"14300041","name":"행운복권방","roadAddress":"충북 청주시 상당구  상당로 186","sido":"충북","sigungu":"청주시 상당구","lat":36.64496,"lng":127.489702,"phone":"043-256-9010","firstPrizeCount":1,"dealType":"auto","recentDraws":[1054]},{"id":"lt-14300045","ltShpId":"14300045","name":"행운복권방공단오거리점","roadAddress":"충북 청주시 흥덕구 복대1동 107-11번지","sido":"충북","sigungu":"청주시","lat":36.634569,"lng":127.44758,"phone":"043-260-2490","firstPrizeCount":1,"dealType":"auto","recentDraws":[537]},{"id":"lt-14300077","ltShpId":"14300077","name":"현대복권방","roadAddress":"충북 청주시 청원구 내덕1동 0656-36번지 0","sido":"충북","sigungu":"청주시 청원구","lat":36.656839,"lng":127.480028,"phone":"043-252-8345","firstPrizeCount":1,"dealType":"auto","recentDraws":[660]},{"id":"lt-14340109","ltShpId":"14340109","name":"희망복권방","roadAddress":"충북 청주시 흥덕구  월명로 150","sido":"충북","sigungu":"청주시 흥덕구","lat":36.647914,"lng":127.45417,"firstPrizeCount":1,"dealType":"auto","recentDraws":[1190]},{"id":"lt-24300025","ltShpId":"24300025","name":"GS25(청주율량)","roadAddress":"충북 청주시 상당구 율량동  846번지","sido":"충북","sigungu":"청주시 상당구","lat":36.669805,"lng":127.491296,"phone":"043-217-1127","firstPrizeCount":1,"dealType":"manual","recentDraws":[605]},{"id":"lt-24300023","ltShpId":"24300023","name":"GS25(청주주은점)","roadAddress":"충북 청주시 서원구 분평동 1255","sido":"충북","sigungu":"청주시 서원구","lat":36.609866,"lng":127.491331,"phone":"043-283-2117","firstPrizeCount":1,"dealType":"manual","recentDraws":[777]}]